[
  {
    "name": "Phòng khám Da liễu Thăng Long",
    "address": "Số 15 ngõ 26 Đỗ Quang, Phường Trung Hòa, Quận Cầu Giấy, Hà Nội",
    "website": "https://dalieuthanglong.vn/",
    "phone": "0946 868 818",
    "district": "Cầu Giấy",
    "nearby": [
      "Phường Yên Hòa",
      "Phường Dịch Vọng",
      "Đường Trần Duy Hưng",
      "Đường Trung Kính",
      "Đường Hoàng Đạo Thúy"
    ],
    "location": "https://www.google.com/maps/search/?api=1&query=Phòng+khám+Da+liễu+Thăng+Long+Số+15+ngõ+26+Đỗ+Quang"
  },
  {
    "name": "Phòng khám Da liễu MDmedical",
    "address": "Số 64/7 Lê Trọng Tấn, Phường Khương Mai, Quận Thanh Xuân, Hà Nội",
    "website": "https://mdmedical.vn/",
    "phone": "0987 654 321",
    "district": "Thanh Xuân",
    "nearby": [
      "Phường Phương Liệt",
      "Phường Nhân Chính",
      "Đường Trường Chinh",
      "Phố Nguyễn Ngọc Nại",
      "Ngã Tư Sở"
    ],
    "location": "https://www.google.com/maps/search/?api=1&query=Phòng+khám+Da+liễu+MDmedical+64/7+Lê+Trọng+Tấn"
  },
  {
    "name": "Phòng khám Da liễu - Thẩm mỹ Pema",
    "address": "Khu liền kề Nam Đô Complex, 609 Trương Định, Phường Thịnh Liệt, Quận Hoàng Mai, Hà Nội",
    "website": "http://pema.vn/",
    "phone": "1800 8048",
    "district": "Hoàng Mai",
    "nearby": [
      "Phường Giáp Bát",
      "Phường Tân Mai",
      "Bến xe Giáp Bát",
      "Đường Giải Phóng",
      "Phố Kim Đồng"
    ],
    "location": "https://www.google.com/maps/search/?api=1&query=Phòng+khám+Da+liễu+-+Thẩm+mỹ+Pema+609+Trương+Định"
  },
  {
    "name": "Bệnh viện Da liễu Hà Nội",
    "address": "Số 79B Nguyễn Khuyến, Phường Văn Miếu, Quận Đống Đa, Hà Nội",
    "website": "http://benhviendalieuhanoi.com/",
    "phone": "024 3932 0107",
    "district": "Đống Đa",
    "nearby": [
      "Văn Miếu - Quốc Tử Giám",
      "Phường Cát Linh",
      "Phố Hàng Bột",
      "Đường Tôn Đức Thắng",
      "Ga Hà Nội"
    ],
    "location": "https://www.google.com/maps/search/?api=1&query=Bệnh+viện+Da+liễu+Hà+Nội+79B+Nguyễn+Khuyến"
  },
  {
    "name": "Phòng khám Da liễu Đông Phương",
    "address": "Số 497 Đường Quang Trung, Phường Quang Trung, Quận Hà Đông, Hà Nội",
    "website": "https://dalieudongphuong.com/",
    "phone": "024 3641 0611",
    "district": "Hà Đông",
    "nearby": [
      "Phường Yết Kiêu",
      "Phường La Khê",
      "Bưu điện Hà Đông",
      "Chợ Hà Đông",
      "Đường Tố Hữu"
    ],
    "location": "https://www.google.com/maps/search/?api=1&query=Phòng+khám+Da+liễu+Đông+Phương+497+Quang+Trung+Hà+Đông"
  },
  {
    "name": "Phòng khám Đa khoa Yecxanh - Chuyên khoa Da liễu",
    "address": "Số 221 Phố Vọng, Phường Đồng Tâm, Quận Hai Bà Trưng, Hà Nội",
    "website": "https://yecxanh.com/",
    "phone": "098 886 8686",
    "district": "Hai Bà Trưng",
    "nearby": [
      "Phường Bách Khoa",
      "Phường Trương Định",
      "Đường Lê Thanh Nghị",
      "Bệnh viện Bạch Mai",
      "Đại học Kinh tế Quốc dân"
    ],
    "location": "https://www.google.com/maps/search/?api=1&query=Phòng+khám+Đa+khoa+Yecxanh+221+Phố+Vọng"
  },
  {
    "name": "Phòng khám Da liễu Bác sĩ Nguyễn Thế Vỹ",
    "address": "Số 38 Phố Trương Hán Siêu, Phường Trần Hưng Đạo, Quận Hoàn Kiếm, Hà Nội",
    "website": "https://drnguyen.vn/",
    "phone": "0914 851 551",
    "district": "Hoàn Kiếm",
    "nearby": [
      "Hồ Thiền Quang",
      "Phố Bà Triệu",
      "Phố Quang Trung",
      "Nhà hát Lớn Hà Nội",
      "Phường Hàng Bài"
    ],
    "location": "https://www.google.com/maps/search/?api=1&query=Phòng+khám+Da+liễu+Bác+sĩ+Nguyễn+Thế+Vỹ+38+Trương+Hán+Siêu"
  },
  {
    "name": "Da liễu – Thẩm mỹ Saika",
    "address": "Số 35 Phố Nguyễn Văn Cừ, Phường Ngọc Lâm, Quận Long Biên, Hà Nội",
    "website": "https://thammyviensaika.vn/",
    "phone": "0888 123 456",
    "district": "Long Biên",
    "nearby": [
      "Phường Bồ Đề",
      "Cầu Chương Dương",
      "Phố Ngọc Lâm",
      "Vườn hoa Ngọc Lâm",
      "Mipec Riverside"
    ],
    "location": "https://www.google.com/maps/search/?api=1&query=Da+liễu+Thẩm+mỹ+Saika+35+Nguyễn+Văn+Cừ+Long+Biên"
  },
  {
    "name": "Bệnh viện Đa khoa Quốc tế Thu Cúc - Cơ sở Thụy Khuê",
    "address": "Số 286 Phố Thụy Khuê, Phường Bưởi, Quận Tây Hồ, Hà Nội",
    "website": "https://benhvienthucuc.vn/",
    "phone": "1900 558 896",
    "district": "Tây Hồ",
    "nearby": [
      "Hồ Tây",
      "Chợ Bưởi",
      "Phường Xuân La",
      "Đường Lạc Long Quân",
      "Phố Hoàng Hoa Thám"
    ],
    "location": "https://www.google.com/maps/search/?api=1&query=Bệnh+viện+Thu+Cúc+286+Thụy+Khuê"
  },
  {
    "name": "Phòng khám Da liễu Hà Nội - Cơ sở Hoàng Quốc Việt",
    "address": "Số 447 Đường Hoàng Quốc Việt, Phường Cổ Nhuế 1, Quận Bắc Từ Liêm, Hà Nội",
    "website": "http://dalieuhanoi.com/",
    "phone": "0949 470 055",
    "district": "Bắc Từ Liêm",
    "nearby": [
      "Phường Nghĩa Tân",
      "Đại học Điện Lực",
      "Đường Phạm Văn Đồng",
      "Khu đô thị Ciputra",
      "Công viên Hòa Bình"
    ],
    "location": "https://www.google.com/maps/search/?api=1&query=Phòng+khám+Da+liễu+Hà+Nội+447+Hoàng+Quốc+Việt"
  },
  {
    "name": "THANHBACSI - Bác sĩ Thanh - Tư vấn Da liễu",
    "address": "88 B8, Thôn 25, Sóc Sơn, Hà Nội",
    "website": "http://thanhbacsi.com/",
    "phone": "+84 869 609 764",
    "district": "Sóc Sơn",
    "nearby": [
      "Xã Sóc Sơn",
      "Xã Đa Phúc",
      "Xã Trung Giã",
      "Xã Nội Bài",
      "Xã Kim Anh"
    ],
    "location": "https://maps.google.com/?cid=14984447343618726830&g_mp=Cidnb29nbGUubWFwcy5wbGFjZXMudjEuUGxhY2VzLlNlYXJjaFRleHQ"
  },
  {
    "name": "Phòng Khám Đa Khoa Thiện An",
    "address": "48 QL3, Phù Linh, Sóc Sơn, Hà Nội",
    "website": null,
    "phone": "+84 357 553 366",
    "district": "Sóc Sơn",
    "nearby": [
      "Xã Sóc Sơn",
      "Xã Đa Phúc",
      "Xã Trung Giã",
      "Xã Nội Bài",
      "Xã Kim Anh"
    ],
    "location": "https://maps.google.com/?cid=15974012126531794600&g_mp=Cidnb29nbGUubWFwcy5wbGFjZXMudjEuUGxhY2VzLlNlYXJjaFRleHQ"
  },
  {
    "name": "Phòng Khám Da Liễu Thẩm Mỹ BV Thạch Thất",
    "address": "420, 420 ĐT420, Kim Quan, Thạch Thất, Hà Nội",
    "website": null,
    "phone": "",
    "district": "Thạch Thất",
    "nearby": [
      "Xã Hạ Bằng",
      "Xã Hòa Lạc",
      "Xã Kiều Phú",
      "Xã Tây Phương",
      "Xã Thạch Thất",
      "Xã Yên Xuân"
    ],
    "location": "https://maps.google.com/?cid=11025503199692190254&g_mp=Cidnb29nbGUubWFwcy5wbGFjZXMudjEuUGxhY2VzLlNlYXJjaFRleHQ"
  },
  {
    "name": "Phòng khám đa khoa Y Cao Hà Nội-Thường Tín",
    "address": "Quất Động, Thường Tín, Hà Nội",
    "website": null,
    "phone": "+84 912 203 760",
    "district": "Thường Tín",
    "nearby": [
      "Xã Chương Dương",
      "Xã Hồng Vân",
      "Xã Thượng Phúc",
      "Xã Thường Tín"
    ],
    "location": "https://maps.google.com/?cid=17722335126531400406&g_mp=Cidnb29nbGUubWFwcy5wbGFjZXMudjEuUGxhY2VzLlNlYXJjaFRleHQ"
  },
  {
    "name": "Bệnh viện 19-8 Bộ Công An (Khoa Da liễu)",
    "address": "Số 9 Trần Bình, Phường Mai Dịch, Quận Cầu Giấy, Hà Nội",
    "website": "http://benhvien198.vn/",
    "phone": "024 3768 2492",
    "district": "Cầu Giấy",
    "nearby": [
      "Phường Dịch Vọng Hậu",
      "Phường Quan Hoa",
      "Phường Nghĩa Tân",
      "Phường Mỹ Đình 2"
    ],
    "location": "https://www.google.com/maps/search/?api=1&query=Bệnh+viện+19-8+Bộ+Công+An,+9+Trần+Bình,+Mai+Dịch,+Cầu+Giấy,+Hà+Nội"
  },
  {
    "name": "Phòng khám Da liễu Hà Nội - Cơ sở Nguyễn Xiển",
    "address": "Số 54 Nguyễn Xiển, Phường Thanh Xuân Nam, Quận Thanh Xuân, Hà Nội",
    "website": "http://dalieuhanoi.com/",
    "phone": "0949 470 055",
    "district": "Thanh Xuân",
    "nearby": [
      "Phường Thanh Xuân Bắc (mới)",
      "Phường Hạ Đình",
      "Phường Kim Giang (mới)",
      "Phường Đại Kim"
    ],
    "location": "https://www.google.com/maps/search/?api=1&query=Phòng+khám+Da+liễu+Hà+Nội,+54+Nguyễn+Xiển,+Thanh+Xuân+Nam,+Thanh+Xuân,+Hà+Nội"
  },
  {
    "name": "Phòng khám Da liễu Hà Nội - Cơ sở Minh Khai",
    "address": "Số 296 Minh Khai, Phường Vĩnh Tuy, Quận Hoàng Mai, Hà Nội",
    "website": "http://dalieuhanoi.com/",
    "phone": "0949 470 055",
    "district": "Hoàng Mai",
    "nearby": [
      "Phường Mai Động",
      "Phường Thanh Lương",
      "Phường Bạch Mai (mới)",
      "Khu đô thị Times City"
    ],
    "location": "https://www.google.com/maps/search/?api=1&query=Phòng+khám+Da+liễu+Hà+Nội,+296+Minh+Khai,+Vĩnh+Tuy,+Hoàng+Mai,+Hà+Nội"
  },
  {
    "name": "Bệnh viện Bạch Mai (Khoa Da liễu)",
    "address": "Số 78 Đường Giải Phóng, Phường Phương Mai, Quận Đống Đa, Hà Nội",
    "website": "https://bachmai.gov.vn/khoa-da-lieu",
    "phone": "024 3868 9443",
    "district": "Đống Đa",
    "nearby": [
      "Phường Phương Đình",
      "Phường Kim Liên (mới)",
      "Phường Bách Khoa (mới)",
      "Phường Đồng Tâm"
    ],
    "location": "https://www.google.com/maps/search/?api=1&query=Bệnh+viện+Bạch+Mai,+78+Giải+Phóng,+Phương+Mai,+Đống+Đa,+Hà+Nội"
  },
  {
    "name": "Bệnh viện Quân y 103 (Khoa Da liễu)",
    "address": "Số 261 Phùng Hưng, Phường Phúc La, Quận Hà Đông, Hà Nội",
    "website": "https://benhvien103.vn/",
    "phone": "024 3356 5117",
    "district": "Hà Đông",
    "nearby": [
      "Phường Quang Trung (mới)",
      "Phường Văn Quán",
      "Phường Mộ Lao",
      "Khu đô thị Xa La"
    ],
    "location": "https://www.google.com/maps/search/?api=1&query=Bệnh+viện+Quân+y+103,+261+Phùng+Hưng,+Phúc+La,+Hà+Đông,+Hà+Nội"
  },
  {
    "name": "Bệnh viện Hữu nghị Việt Xô (Khoa Da liễu)",
    "address": "Số 1 Trần Khánh Dư, Phường Bạch Đằng, Quận Hai Bà Trưng, Hà Nội",
    "website": "http://benhvienhuunghi.vn/khoa-da-lieu/",
    "phone": "024 3821 4954",
    "district": "Hai Bà Trưng",
    "nearby": [
      "Phường Phan Chu Trinh",
      "Phường Chương Dương",
      "Phường Đồng Nhân (mới)",
      "Nhà hát Lớn Hà Nội"
    ],
    "location": "https://www.google.com/maps/search/?api=1&query=Bệnh+viện+Hữu+nghị+Việt+Xô,+1+Trần+Khánh+Dư,+Bạch+Đằng,+Hai+Bà+Trưng,+Hà+Nội"
  },
  {
    "name": "Bệnh viện Quân y 354 (Khoa Da liễu)",
    "address": "Số 120 Đốc Ngữ, Phường Vĩnh Phúc, Quận Ba Đình, Hà Nội",
    "website": "http://benhvien354.vn/",
    "phone": "024 3762 2595",
    "district": "Ba Đình",
    "nearby": [
      "Phường Trúc Bạch (mới)",
      "Phường Liễu Giai",
      "Phường Cống Vị",
      "Lotte Center Hà Nội"
    ],
    "location": "https://www.google.com/maps/search/?api=1&query=Bệnh+viện+Quân+y+354,+120+Đốc+Ngữ,+Vĩnh+Phúc,+Ba+Đình,+Hà+Nội"
  },
  {
    "name": "Bệnh viện Hữu nghị Việt Đức (Phòng khám Da liễu)",
    "address": "Số 40 Tràng Thi, Phường Hàng Bông, Quận Hoàn Kiếm, Hà Nội",
    "website": "https://benhvienvietduc.org/",
    "phone": "024 3825 3531",
    "district": "Hoàn Kiếm",
    "nearby": [
      "Phường Cửa Nam",
      "Phường Hàng Trống",
      "Phường Trần Hưng Đạo",
      "Nhà thờ Lớn Hà Nội"
    ],
    "location": "https://www.google.com/maps/search/?api=1&query=Bệnh+viện+Hữu+nghị+Việt+Đức,+40+Tràng+Thi,+Hàng+Bông,+Hoàn+Kiếm,+Hà+Nội"
  },
  {
    "name": "Phòng khám ck Da liễu bs Quỳnh",
    "address": "TT 6- 34 khu đấu giá, Tứ Hiệp, Thanh Trì, Hà Nội",
    "website": "N/A",
    "phone": "0889 983 968",
    "district": "Thanh Trì",
    "nearby": [
      "Thị trấn Văn Điển",
      "Tân Triều",
      "Thanh Liệt",
      "Tứ Hiệp"
    ],
    "location": "https://www.google.com/maps/search/?api=1&query=TT+6-+34+khu+đấu+giá,+Tứ+Hiệp,+Thanh+Trì,+Hà+Nội"
  },
  {
    "name": "Trung Tâm Y Tế Huyện Ba Vì",
    "address": "Gò Sóc, Thị trấn Tây Đằng, Ba Vì, Hà Nội",
    "website": "http://trungtamytehuyenbavi.vn/",
    "phone": "0367 005 986",
    "district": "Ba Vì",
    "nearby": [
      "Thị trấn Tây Đằng",
      "Cổ Đô",
      "Tản Lĩnh",
      "Vân Hòa"
    ],
    "location": "https://www.google.com/maps/search/?api=1&query=Gò+Sóc,+Thị+trấn+Tây+Đằng,+Ba+Vì,+Hà+Nội"
  },
  {
    "name": "PK Da liễu BS Hằng & SPA",
    "address": "5 Đường Đại Phú, Thượng Mỗ, Đan Phượng, Hà Nội",
    "website": "N/A",
    "phone": "0344 988 288",
    "district": "Đan Phượng",
    "nearby": [
      "Thị trấn Phùng",
      "Song Phượng",
      "Hồng Hà",
      "Tân Lập"
    ],
    "location": "https://www.google.com/maps/search/?api=1&query=5+Đường+Đại+Phú,+Thượng+Mỗ,+Đan+Phượng,+Hà+Nội"
  },
  {
    "name": "Nhà thuốc da liễu Minh Đăng",
    "address": "12 Ngô Xuân Quảng, Trâu Quỳ, Gia Lâm, Hà Nội",
    "website": "N/A",
    "phone": "0987 841 070",
    "district": "Gia Lâm",
    "nearby": [
      "Thị trấn Trâu Quỳ",
      "Đa Tốn",
      "Kiêu Kỵ",
      "Ninh Hiệp"
    ],
    "location": "https://www.google.com/maps/search/?api=1&query=12+Ngô+Xuân+Quảng,+Trâu+Quỳ,+Gia+Lâm,+Hà+Nội"
  },
  {
    "name": "Phòng Khám Da Liễu",
    "address": "Tổ 27, Thị trấn Đông Anh, Đông Anh, Hà Nội",
    "website": "N/A",
    "phone": "048820422",
    "district": "Đông Anh",
    "nearby": [
      "Thị trấn Đông Anh",
      "Kim Chung",
      "Vân Nội",
      "Cổ Loa"
    ],
    "location": "https://www.google.com/maps/search/?api=1&query=Tổ+27,+Thị+trấn+Đông+Anh,+Đông+Anh,+Hà+Nội"
  },
  {
    "name": "Bệnh viện đa khoa huyện Thường Tín",
    "address": "Số 115 Trần Phú, Thị trấn Thường Tín, Thường Tín, Hà Nội",
    "website": "http://bvthuongtin.vn/benh-vien-da-khoa-thuong-tin",
    "phone": "0243 3852 942",
    "district": "Thường Tín",
    "nearby": [
      "Thị trấn Thường Tín",
      "Văn Tự",
      "Quất Động",
      "Hà Hồi"
    ],
    "location": "https://www.google.com/maps/search/?api=1&query=Số+115+Trần+Phú,+Thị+trấn+Thường+Tín,+Thường+Tín,+Hà+Nội"
  },
  {
    "name": "Bệnh Viện Đa Khoa Chương Mỹ",
    "address": "120 TDP Hòa Sơn, Thị trấn Chúc Sơn, Chương Mỹ, Hà Nội",
    "website": "https://benhviendakhoachuongmy.com/",
    "phone": "0967346086",
    "district": "Chương Mỹ",
    "nearby": [
      "Thị trấn Chúc Sơn",
      "Xuân Mai",
      "Phụng Châu",
      "Ngọc Hòa"
    ],
    "location": "https://www.google.com/maps/search/?api=1&query=120+TDP+Hòa+Sơn,+Thị+trấn+Chúc+Sơn,+Chương+Mỹ,+Hà+Nội"
  },
  {
    "name": "Phòng khám chuyên khoa Da Liễu bs Thuỷ",
    "address": "Số 6 ngõ 134, Đường 422, Lưu Xá, Hoài Đức, Hà Nội",
    "website": "N/A",
    "phone": "0868 438 619",
    "district": "Hoài Đức",
    "nearby": [
      "Thị trấn Trạm Trôi",
      "An Khánh",
      "Kim Chung",
      "La Phù"
    ],
    "location": "https://www.google.com/maps/search/?api=1&query=Số+6+ngõ+134,+Đường+422,+Lưu+Xá,+Hoài+Đức,+Hà+Nội"
  },
  {
    "name": "Không tìm thấy phòng khám da liễu tại Mỹ Đức",
    "address": "N/A",
    "website": "N/A",
    "phone": "N/A",
    "district": "Mỹ Đức",
    "nearby": [],
    "location": "https://www.google.com/maps/search/?api=1&query=Mỹ+Đức,+Hà+Nội"
  },
  {
    "name": "Bệnh viện Đa khoa huyện Phúc Thọ",
    "address": "Thị trấn Phúc Thọ, Phúc Thọ, Hà Nội",
    "website": "http://www.benhvienphuctho.vn/",
    "phone": "02433848351",
    "district": "Phúc Thọ",
    "nearby": [
      "Thị trấn Phúc Thọ",
      "Võng Xuyên",
      "Hát Môn",
      "Thanh Đa"
    ],
    "location": "https://www.google.com/maps/search/?api=1&query=Thị+trấn+Phúc+Thọ,+Phúc+Thọ,+Hà+Nội"
  },
  {
    "name": "Phòng khám Da liễu Bác sĩ Thanh",
    "address": "88 Khu B8, Thôn 2, xã Phù Lỗ, huyện Sóc Sơn, Hà Nội",
    "website": "http://thanhbacsi.com/",
    "phone": "0869 609 764",
    "district": "Sóc Sơn",
    "nearby": [
      "Thị trấn Sóc Sơn", "Bắc Phú", "Bắc Sơn", "Đông Xuân", "Đức Hòa", "Hiền Ninh", "Hồng Kỳ", "Kim Lũ", "Mai Đình", "Minh Phú", "Minh Trí", "Nam Sơn", "Phú Cường", "Phù Linh", "Phù Lỗ", "Phú Minh", "Quang Tiến", "Tân Dân", "Tân Hưng", "Tân Minh", "Thanh Xuân", "Tiên Dược", "Trung Giã", "Việt Long", "Xuân Giang", "Xuân Thu"
    ],
    "location": "https://www.google.com/maps/search/?api=1&query=88+Khu+B8,+Thôn+2,+xã+Phù+Lỗ,+huyện+Sóc+Sơn,+Hà+Nội"
  },
  {
    "name": "Khoa Da liễu - Bệnh viện Đa khoa huyện Phúc Thọ",
    "address": "Cụm 8, Thị trấn Phúc Thọ, huyện Phúc Thọ, Hà Nội",
    "website": "N/A",
    "phone": "02433642297",
    "district": "Phúc Thọ",
    "nearby": [
      "Thị trấn Phúc Thọ", "Cẩm Đình", "Hát Môn", "Hiệp Thuận", "Liên Hiệp", "Long Xuyên", "Ngọc Tảo", "Phúc Hòa", "Phụng Thượng", "Phương Độ", "Sen Chiểu", "Tam Hiệp", "Tam Thuấn", "Tân Lập", "Thanh Đa", "Thọ Lộc", "Thượng Cốc", "Tích Giang", "Trạch Mỹ Lộc", "Vân Hà", "Vân Nam", "Vân Phúc", "Võng Xuyên", "Xuân Đình"
    ],
    "location": "https://www.google.com/maps/search/?api=1&query=Bệnh+viện+Đa+khoa+huyện+Phúc+Thọ,+Hà+Nội"
  },
  {
    "name": "Phòng khám Da liễu Đông Anh - Bác sĩ Thảo",
    "address": "Số 15, Tổ 4, Thị trấn Đông Anh, huyện Đông Anh, Hà Nội",
    "website": "N/A",
    "phone": "0983 502 489",
    "district": "Đông Anh",
    "nearby": [
      "Thị trấn Đông Anh", "Bắc Hồng", "Cổ Loa", "Đại Mạch", "Đông Hội", "Dục Tú", "Hải Bối", "Kim Chung", "Kim Nỗ", "Liên Hà", "Mai Lâm", "Nam Hồng", "Nguyên Khê", "Tàm Xá", "Thụy Lâm", "Tiên Dương", "Uy Nỗ", "Vân Hà", "Vân Nội", "Việt Hùng", "Vĩnh Ngọc", "Võng La", "Xuân Canh", "Xuân Nộn"
    ],
    "location": "https://www.google.com/maps/search/?api=1&query=Số+15,+Tổ+4,+Thị+trấn+Đông+Anh,+huyện+Đông+Anh,+Hà+Nội"
  },
  {
    "name": "Phòng khám Đa khoa Y cao Hà Nội",
    "address": "Nam Phong, xã Nam Phong, huyện Phú Xuyên, Hà Nội",
    "website": "N/A",
    "phone": "0985 888 734",
    "district": "Phú Xuyên",
    "nearby": [
      "Thị trấn Phú Minh", "Thị trấn Phú Xuyên", "Bạch Hạ", "Châu Can", "Chuyên Mỹ", "Đại Thắng", "Đại Xuyên", "Hoàng Long", "Hồng Minh", "Hồng Thái", "Khai Thái", "Minh Tân", "Nam Phong", "Nam Triều", "Phú Túc", "Phú Yên", "Phúc Tiến", "Phượng Dực", "Quang Lãng", "Quang Trung", "Sơn Hà", "Tân Dân", "Thụy Phú", "Tri Thủy", "Tri Trung", "Văn Hoàng", "Vân Từ"
    ],
    "location": "https://www.google.com/maps/search/?api=1&query=Phòng+khám+Đa+khoa+Y+cao+Hà+Nội,+Phú+Xuyên"
  },
  {
    "name": "Phòng khám Da liễu Bác sĩ Hằng",
    "address": "Thôn Đồng Bụt, xã Ngọc Liệp, huyện Quốc Oai, Hà Nội",
    "website": "N/A",
    "phone": "0978 015 621",
    "district": "Quốc Oai",
    "nearby": [
      "Thị trấn Quốc Oai", "Cấn Hữu", "Cộng Hòa", "Đại Thành", "Đồng Quang", "Đông Yên", "Hòa Thạch", "Liệp Tuyết", "Nghĩa Hương", "Ngọc Liệp", "Ngọc Mỹ", "Phú Cát", "Phú Mãn", "Phượng Cách", "Sài Sơn", "Tân Hòa", "Tân Phú", "Thạch Thán", "Tuyết Nghĩa", "Yên Sơn", "Đông Xuân"
    ],
    "location": "https://www.google.com/maps/search/?api=1&query=Phòng+khám+Da+liễu+Bác+sĩ+Hằng,+Ngọc+Liệp,+Quốc+Oai"
  },
  {
    "name": "Phòng khám Đa khoa Favina",
    "address": "Số 135 Thanh Ấm, Thị trấn Vân Đình, huyện Ứng Hòa, Hà Nội",
    "website": "https://favinahospital.com/",
    "phone": "0963 396 115",
    "district": "Ứng Hòa",
    "nearby": [
      "Thị trấn Vân Đình", "Cao Thành", "Đại Cường", "Đại Hùng", "Đội Bình", "Đông Lỗ", "Đồng Tân", "Đồng Tiến", "Hoa Sơn", "Hòa Lâm", "Hòa Nam", "Hòa Phú", "Hòa Xá", "Hồng Quang", "Kim Đường", "Liên Bạt", "Lưu Hoàng", "Minh Đức", "Phù Lưu", "Phương Tú", "Quảng Phú Cầu", "Sơn Công", "Tảo Dương Văn", "Trầm Lộng", "Trung Tú", "Trường Thịnh", "Vạn Thái", "Viên An", "Viên Nội"
    ],
    "location": "https://www.google.com/maps/search/?api=1&query=Phòng+khám+Đa+khoa+Favina,+Ứng+Hòa"
  },
  {
    "name": "Bệnh viện Quân y 105 (có khoa Da liễu)",
    "address": "Số 1, đường La Thành, phường Quang Trung, thị xã Sơn Tây, Hà Nội",
    "website": "http://benhvienqy105.vn/",
    "phone": "02433832483",
    "district": "Sơn Tây",
    "nearby": [
      "Phường Lê Lợi", "Phường Phú Thịnh", "Phường Ngô Quyền", "Phường Quang Trung", "Phường Sơn Lộc", "Phường Trung Hưng", "Phường Viên Sơn", "Phường Xuân Khanh", "Phường Trung Sơn Trầm", "Xã Đường Lâm", "Xã Kim Sơn", "Xã Cổ Đông", "Xã Sơn Đông", "Xã Thanh Mỹ", "Xã Xuân Sơn"
    ],
    "location": "https://www.google.com/maps/search/?api=1&query=Bệnh+viện+Quân+y+105,+Sơn+Tây"
  },
  {
    "name": "Phòng khám da liễu bác sĩ Huệ (da liễu Thanh Oai)",
    "address": "104 Đ. Bờ Sông, Quảng Minh, Thanh Oai, Hà Nội",
    "website": "N/A",
    "phone": "0961 671 993",
    "district": "Thanh Oai",
    "nearby": [
      "Phú Lương",
      "Thanh Oai",
      "Bình Minh",
      "Tam Hưng",
      "Dân Hòa"
    ],
    "location": "https://www.google.com/maps/search/?api=1&query=104+Đ.+Bờ+Sông,+Quảng+Minh,+Thanh+Oai,+Hà+Nội"
  },
  {
    "name": "Phòng khám chuyên khoa da liễu Nguyên Khánh",
    "address": "78 Đ. Tê Quả, Tam Hưng, Thanh Oai, Hà Nội 100000",
    "website": "N/A",
    "phone": "0985 190 446",
    "district": "Thanh Oai",
    "nearby": [
      "Phú Lương",
      "Thanh Oai",
      "Bình Minh",
      "Tam Hưng",
      "Dân Hòa"
    ],
    "location": "https://www.google.com/maps/search/?api=1&query=78+Đ.+Tê+Quả,+Tam+Hưng,+Thanh+Oai,+Hà+Nội+100000"
  },
  {
    "name": "Phòng Khám Đa Khoa 103 Mỹ Đức",
    "address": "TT. Đại Nghĩa, Mỹ Đức, Hà Nội",
    "website": "N/A",
    "phone": "0858 103 103",
    "district": "Mỹ Đức",
    "nearby": [
        "Phúc Sơn",
        "Hồng Sơn",
        "Mỹ Đức",
        "Hương Sơn"
    ],
    "location": "https://www.google.com/maps/search/?api=1&query=TT.+Đại+Nghĩa,+Mỹ+Đức,+Hà+Nội"
  },
  {
    "name": "Phòng Khám Da Liễu Việt Hưng",
    "address": "24 Ngõ 15 Đào Đình Luyện, Phường Việt Hưng, Quận Long Biên, Hà Nội",
    "website": "https://dalieuonline.com/",
    "phone": "0968 588 296",
    "district": "Long Biên",
    "nearby": [
      "Phường Việt Hưng",
      "Phường Bồ Đề",
      "Phường Long Biên",
      "Phường Phúc Lợi"
    ],
    "location": "https://www.google.com/maps/search/?api=1&query=Phòng+Khám+Da+Liễu+Việt+Hưng+24+Ngõ+15+Đào+Đình+Luyện+Long+Biên"
  },
  {
    "name": "Élie Clinic – Bác sĩ Da liễu ĐH Y Hà Nội",
    "address": "59 Ngõ 447 Đường Ngọc Lâm, Phường Ngọc Lâm, Quận Long Biên, Hà Nội",
    "website": null,
    "phone": "0398 499 966",
    "district": "Long Biên",
    "nearby": [
      "Phường Việt Hưng",
      "Phường Bồ Đề",
      "Phường Long Biên",
      "Phường Phúc Lợi"
    ],
    "location": "https://www.google.com/maps/search/?api=1&query=Élie+Clinic+Bác+sĩ+Da+liễu+ĐH+Y+Hà+Nội+59+Ngõ+447+Đường+Ngọc+Lâm+Long+Biên"
  },
  {
    "name": "Phòng Khám Da Liễu LK member of Australia's Clinic",
    "address": "11 Phố Vệ Hồ, Phường Xuân La, Quận Tây Hồ, Hà Nội",
    "website": null,
    "phone": "0395 858 689",
    "district": "Tây Hồ",
    "nearby": [
      "Phường Hồng Hà",
      "Phường Nghĩa Đô",
      "Phường Tây Hồ",
      "Phường Phú Thượng",
      "Phường Xuân Đỉnh"
    ],
    "location": "https://www.google.com/maps/search/?api=1&query=Phòng+Khám+Da+Liễu+LK+member+of+Australia's+Clinic+11+Phố+Vệ+Hồ+Tây+Hồ"
  },
  {
    "name": "Phòng Khám Chuyên Khoa Da Liễu La Hues",
    "address": "153 Phố Đồng Cổ, Phường Bưởi, Quận Tây Hồ, Hà Nội",
    "website": null,
    "phone": "0974 839 896",
    "district": "Tây Hồ",
    "nearby": [
      "Phường Hồng Hà",
      "Phường Nghĩa Đô",
      "Phường Tây Hồ",
      "Phường Phú Thượng",
      "Phường Xuân Đỉnh"
    ],
    "location": "https://www.google.com/maps/search/?api=1&query=Phòng+Khám+Chuyên+Khoa+Da+Liễu+La+Hues+153+Phố+Đồng+Cổ+Tây+Hồ"
  },
  {
    "name": "Phòng Khám Da Liễu Hồng Đức",
    "address": "58 Phố Nguyễn Hoàng, Phường Mỹ Đình, Quận Nam Từ Liêm, Hà Nội",
    "website": "http://dalieuhongduc.com/",
    "phone": "0984 110 997",
    "district": "Nam Từ Liêm",
    "nearby": [
      "Phường Từ Liêm",
      "Phường Xuân Phương",
      "Phường Tây Mỗ",
      "Phường Đại Mỗ"
    ],
    "location": "https://www.google.com/maps/search/?api=1&query=Phòng+Khám+Da+Liễu+Hồng+Đức+58+Phố+Nguyễn+Hoàng+Nam+Từ+Liêm"
  },
  {
    "name": "Phòng Khám Da Liễu- BS Nguyễn Khắc Bình",
    "address": "94 Ngõ 168 Đường Kim Giang, Phường Đại Kim, Quận Hoàng Mai, Hà Nội",
    "website": "https://www.facebook.com/bskhacbinh",
    "phone": "0903 280 174",
    "district": "Hoàng Mai (lân cận Nam Từ Liêm)",
    "nearby": [
      "Phường Từ Liêm",
      "Phường Xuân Phương",
      "Phường Tây Mỗ",
      "Phường Đại Mỗ"
    ],
    "location": "https://www.google.com/maps/search/?api=1&query=Phòng+Khám+Da+Liễu+BS+Nguyễn+Khắc+Bình+94+Ngõ+168+Đường+Kim+Giang+Hoàng+Mai"
  },
  {
    "name": "Phòng Khám Da Liễu Hà Nội",
    "address": "447 Hoàng Quốc Việt, Phường Cổ Nhuế, Quận Bắc Từ Liêm, Hà Nội",
    "website": "https://dalieuhanoi.com/",
    "phone": "0949 470 055",
    "district": "Bắc Từ Liêm",
    "nearby": [
      "Phường Tây Tựu",
      "Phường Phú Diễn",
      "Phường Xuân Đỉnh",
      "Phường Đông Ngạc",
      "Phường Thượng Cát"
    ],
    "location": "https://www.google.com/maps/search/?api=1&query=Phòng+Khám+Da+Liễu+Hà+Nội+447+Hoàng+Quốc+Việt+Bắc+Từ+Liêm"
  },
  {
    "name": "Phòng Khám Da liễu uy tín tại Hà Nội - Phòng Khám Da liễu Chí Thành",
    "address": "Tòa R4A, Goldmark City, 136 Hồ Tùng Mậu, Quận Bắc Từ Liêm, Hà Nội",
    "website": null,
    "phone": "0983 316 458",
    "district": "Bắc Từ Liêm",
    "nearby": [
      "Phường Tây Tựu",
      "Phường Phú Diễn",
      "Phường Xuân Đỉnh",
      "Phường Đông Ngạc",
      "Phường Thượng Cát"
    ],
    "location": "https://www.google.com/maps/search/?api=1&query=Phòng+Khám+Da+liễu+Chí+Thành+Goldmark+City+Bắc+Từ+Liêm"
  },
  {
    "name": "Bệnh viện Đa khoa Thạch Thất",
    "address": "Thôn Bùng, xã Phùng Xá, huyện Thạch Thất, Hà Nội",
    "website": "http://benhvienthachthat.vn/",
    "phone": "0243 3674 371",
    "district": "Thạch Thất",
    "nearby": [
      "Phường Quan Giai", "Xã Bình Phú", "Xã Cẩm Yên", "Xã Cần Kiệm", "Xã Canh Nậu", "Xã Chàng Sơn", "Xã Đại Đồng", "Xã Dị Nậu", "Xã Đồng Trúc", "Xã Hạ Bằng", "Xã Hương Ngải", "Xã Hữu Bằng", "Xã Kim Quan", "Xã Lại Thượng", "Xã Phùng Xá", "Xã Tân Xã", "Xã Thạch Hòa", "Xã Thạch Xá", "Xã Tiến Xuân", "Xã Yên Bình", "Xã Yên Trung"
    ],
    "location": "https://www.google.com/maps/search/?api=1&query=Bệnh+viện+Đa+khoa+Thạch+Thất"
  },
  {
    "name": "Bệnh viện Đa khoa Quốc Oai",
    "address": "Thị trấn Quốc Oai, huyện Quốc Oai, Hà Nội",
    "website": "http://benhvienquocoai.com/",
    "phone": "0243 3843 368",
    "district": "Quốc Oai (Lân cận Thạch Thất)",
    "nearby": [
      "Phường Quan Giai", "Xã Bình Phú", "Xã Cẩm Yên", "Xã Cần Kiệm", "Xã Canh Nậu", "Xã Chàng Sơn", "Xã Đại Đồng", "Xã Dị Nậu", "Xã Đồng Trúc", "Xã Hạ Bằng", "Xã Hương Ngải", "Xã Hữu Bằng", "Xã Kim Quan", "Xã Lại Thượng", "Xã Phùng Xá", "Xã Tân Xã", "Xã Thạch Hòa", "Xã Thạch Xá", "Xã Tiến Xuân", "Xã Yên Bình", "Xã Yên Trung"
    ],
    "location": "https://www.google.com/maps/search/?api=1&query=Bệnh+viện+Đa+khoa+Quốc+Oai"
  },
  {
    "name": "Bệnh viện Đa khoa Thanh Trì",
    "address": "Số 1 đường Tứ Hiệp, Pháp Vân, Hoàng Liệt, Hoàng Mai, Hà Nội (Gần Thanh Trì)",
    "website": "https://benhvienthanhtri.vn/",
    "phone": "0246 2888 000",
    "district": "Hoàng Mai (Lân cận Thanh Trì)",
    "nearby": [
      "Thị trấn Văn Điển", "Xã Đại Áng", "Xã Đông Mỹ", "Xã Duyên Hà", "Xã Hữu Hòa", "Xã Liên Ninh", "Xã Ngọc Hồi", "Xã Ngũ Hiệp", "Xã Tam Hiệp", "Xã Tân Triều", "Xã Tả Thanh Oai", "Xã Thanh Liệt", "Xã Tứ Hiệp", "Xã Vạn Phúc", "Xã Vĩnh Quỳnh", "Xã Yên Mỹ"
    ],
    "location": "https://www.google.com/maps/search/?api=1&query=Bệnh+viện+Đa+khoa+Thanh+Trì"
  },
  {
    "name": "Phòng khám Da liễu và Thẩm mỹ Dr. Lương",
    "address": "Số 39, ngõ 207 Bùi Xương Trạch, Khương Đình, Thanh Xuân, Hà Nội (Lân cận Thanh Trì)",
    "website": null,
    "phone": "0987 876 532",
    "district": "Thanh Xuân (Lân cận Thanh Trì)",
    "nearby": [
      "Thị trấn Văn Điển", "Xã Đại Áng", "Xã Đông Mỹ", "Xã Duyên Hà", "Xã Hữu Hòa", "Xã Liên Ninh", "Xã Ngọc Hồi", "Xã Ngũ Hiệp", "Xã Tam Hiệp", "Xã Tân Triều", "Xã Tả Thanh Oai", "Xã Thanh Liệt", "Xã Tứ Hiệp", "Xã Vạn Phúc", "Xã Vĩnh Quỳnh", "Xã Yên Mỹ"
    ],
    "location": "https://www.google.com/maps/search/?api=1&query=Phòng+khám+Da+liễu+và+Thẩm+mỹ+Dr.+Lương+Bùi+Xương+Trạch"
  },
  {
    "name": "Bệnh viện Đa khoa Ba Vì",
    "address": "Tiểu khu 4, thị trấn Tây Đằng, huyện Ba Vì, Hà Nội",
    "website": "http://www.benhvienbavi.com.vn/",
    "phone": "0243 3863 118",
    "district": "Ba Vì",
    "nearby": [
      "Thị trấn Tây Đằng", "Xã Ba Trại", "Xã Ba Vì", "Xã Cẩm Lĩnh", "Xã Cam Thượng", "Xã Châu Sơn", "Xã Chu Minh", "Xã Cổ Đô", "Xã Cổ Đông", "Xã Đông Quang", "Xã Đồng Thái", "Xã Khánh Thượng", "Xã Minh Châu", "Xã Minh Quang", "Xã Phong Vân", "Xã Phú Châu", "Xã Phú Cường", "Xã Phú Đông", "Xã Phú Phương", "Xã Phú Sơn", "Xã Sơn Đà", "Xã Tản Hồng", "Xã Tản Lĩnh", "Xã Thái Hòa", "Xã Thuần Mỹ", "Xã Thụy An", "Xã Tiên Phong", "Xã Tòng Bạt", "Xã Vân Hòa", "Xã Vạn Thắng", "Xã Vật Lại", "Xã Yên Bài"
    ],
    "location": "https://www.google.com/maps/search/?api=1&query=Bệnh+viện+Đa+khoa+Ba+Vì"
  },
  {
    "name": "Bệnh viện Quân y 105 (Khoa Da liễu)",
    "address": "Số 1, đường Lê Lợi, phường Lê Lợi, thị xã Sơn Tây, Hà Nội",
    "website": "http://benhvienquan-y105.vn/",
    "phone": "0243 3832 595",
    "district": "Sơn Tây (Lân cận Ba Vì)",
    "nearby": [
      "Thị trấn Tây Đằng", "Xã Ba Trại", "Xã Ba Vì", "Xã Cẩm Lĩnh", "Xã Cam Thượng", "Xã Châu Sơn", "Xã Chu Minh", "Xã Cổ Đô", "Xã Cổ Đông", "Xã Đông Quang", "Xã Đồng Thái", "Xã Khánh Thượng", "Xã Minh Châu", "Xã Minh Quang", "Xã Phong Vân", "Xã Phú Châu", "Xã Phú Cường", "Xã Phú Đông", "Xã Phú Phương", "Xã Phú Sơn", "Xã Sơn Đà", "Xã Tản Hồng", "Xã Tản Lĩnh", "Xã Thái Hòa", "Xã Thuần Mỹ", "Xã Thụy An", "Xã Tiên Phong", "Xã Tòng Bạt", "Xã Vân Hòa", "Xã Vạn Thắng", "Xã Vật Lại", "Xã Yên Bài"
    ],
    "location": "https://www.google.com/maps/search/?api=1&query=Bệnh+viện+Quân+y+105"
  },
  {
    "name": "Bệnh viện Đa khoa Đan Phượng",
    "address": "Thị trấn Phùng, huyện Đan Phượng, Hà Nội",
    "website": "http://benhviendanphuong.com.vn/",
    "phone": "0243 3817 141",
    "district": "Đan Phượng",
    "nearby": [
      "Thị trấn Phùng", "Xã Đan Phượng", "Xã Đồng Tháp", "Xã Hạ Mỗ", "Xã Hồng Hà", "Xã Liên Hà", "Xã Liên Hồng", "Xã Liên Trung", "Xã Phương Đình", "Xã Song Phượng", "Xã Tân Hội", "Xã Tân Lập", "Xã Thọ An", "Xã Thọ Xuân", "Xã Thượng Mỗ", "Xã Trung Châu"
    ],
    "location": "https://www.google.com/maps/search/?api=1&query=Bệnh+viện+Đa+khoa+Đan+Phượng"
  },
  {
    "name": "Phòng khám Da liễu - Bác sĩ Nguyễn Thị Thúy",
    "address": "Số 43, ngõ 110 Trần Duy Hưng, Cầu Giấy, Hà Nội (Lân cận Đan Phượng)",
    "website": null,
    "phone": "0912 345 678",
    "district": "Cầu Giấy (Lân cận Đan Phượng)",
    "nearby": [
      "Thị trấn Phùng", "Xã Đan Phượng", "Xã Đồng Tháp", "Xã Hạ Mỗ", "Xã Hồng Hà", "Xã Liên Hà", "Xã Liên Hồng", "Xã Liên Trung", "Xã Phương Đình", "Xã Song Phượng", "Xã Tân Hội", "Xã Tân Lập", "Xã Thọ An", "Xã Thọ Xuân", "Xã Thượng Mỗ", "Xã Trung Châu"
    ],
    "location": "https://www.google.com/maps/search/?api=1&query=Số+43,+ngõ+110+Trần+Duy+Hưng,+Cầu+Giấy"
  },
  {
    "name": "Bệnh viện Đa khoa Gia Lâm",
    "address": "Đường Nguyễn Đức Thuận, Thị trấn Trâu Quỳ, huyện Gia Lâm, Hà Nội",
    "website": "http://benhviengialam.com/",
    "phone": "0243 8768 743",
    "district": "Gia Lâm",
    "nearby": [
      "Thị trấn Trâu Quỳ", "Xã Bát Tràng", "Xã Cổ Bi", "Xã Đa Tốn", "Xã Đặng Xá", "Xã Đình Xuyên", "Xã Đông Dư", "Xã Dương Hà", "Xã Dương Quang", "Xã Dương Xá", "Xã Kiêu Kỵ", "Xã Kim Lan", "Xã Kim Sơn", "Xã Lệ Chi", "Xã Ninh Hiệp", "Xã Phù Đổng", "Xã Phú Thị", "Xã Trung Mầu", "Xã Văn Đức", "Xã Yên Thường", "Xã Yên Viên"
    ],
    "location": "https://www.google.com/maps/search/?api=1&query=Bệnh+viện+Đa+khoa+Gia+Lâm"
  },
  {
    "name": "Phòng khám Da liễu Thẩm mỹ Green Forest",
    "address": "Shophouse S2.08, Vinhomes Ocean Park, Đa Tốn, Gia Lâm, Hà Nội",
    "website": "https://phongkhamgreenforest.vn/",
    "phone": "0967 806 989",
    "district": "Gia Lâm",
    "nearby": [
      "Thị trấn Trâu Quỳ", "Xã Bát Tràng", "Xã Cổ Bi", "Xã Đa Tốn", "Xã Đặng Xá", "Xã Đình Xuyên", "Xã Đông Dư", "Xã Dương Hà", "Xã Dương Quang", "Xã Dương Xá", "Xã Kiêu Kỵ", "Xã Kim Lan", "Xã Kim Sơn", "Xã Lệ Chi", "Xã Ninh Hiệp", "Xã Phù Đổng", "Xã Phú Thị", "Xã Trung Mầu", "Xã Văn Đức", "Xã Yên Thường", "Xã Yên Viên"
    ],
    "location": "https://www.google.com/maps/search/?api=1&query=Phòng+khám+Da+liễu+Thẩm+mỹ+Green+Forest+Vinhomes+Ocean+Park"
  },
  {
    "name": "Bệnh viện Đa khoa huyện Chương Mỹ",
    "address": "Thị trấn Chúc Sơn, huyện Chương Mỹ, Hà Nội",
    "website": "http://benhvienchuongmy.com.vn/",
    "phone": "0243 3866 521",
    "district": "Chương Mỹ",
    "nearby": [
      "Thị trấn Chúc Sơn", "Thị trấn Xuân Mai", "Xã Đại Yên", "Xã Đồng Lạc", "Xã Đồng Phú", "Xã Đông Phương Yên", "Xã Đông Sơn", "Xã Hòa Chính", "Xã Hoàng Diệu", "Xã Hoàng Văn Thụ", "Xã Hồng Phong", "Xã Hợp Đồng", "Xã Hữu Văn", "Xã Lam Điền", "Xã Mỹ Lương", "Xã Nam Phương Tiến", "Xã Ngọc Hòa", "Xã Phú Nam An", "Xã Phú Nghĩa", "Xã Phụng Châu", "Xã Quảng Bị", "Xã Tân Tiến", "Xã Thanh Bình", "Xã Thượng Vực", "Xã Thụy Hương", "Xã Tiên Phương", "Xã Tốt Động", "Xã Trần Phú", "Xã Trung Hòa", "Xã Trường Yên", "Xã Văn Võ"
    ],
    "location": "https://www.google.com/maps/search/?api=1&query=Bệnh+viện+Đa+khoa+huyện+Chương+Mỹ"
  },
  {
    "name": "Bệnh viện Đa khoa Hà Đông (Khoa Da liễu)",
    "address": "Số 2 Bế Văn Đàn, Quang Trung, Hà Đông, Hà Nội",
    "website": "http://benhvienhadong.vn/",
    "phone": "0243 3824 631",
    "district": "Hà Đông (Lân cận Chương Mỹ)",
    "nearby": [
      "Thị trấn Chúc Sơn", "Thị trấn Xuân Mai", "Xã Đại Yên", "Xã Đồng Lạc", "Xã Đồng Phú", "Xã Đông Phương Yên", "Xã Đông Sơn", "Xã Hòa Chính", "Xã Hoàng Diệu", "Xã Hoàng Văn Thụ", "Xã Hồng Phong", "Xã Hợp Đồng", "Xã Hữu Văn", "Xã Lam Điền", "Xã Mỹ Lương", "Xã Nam Phương Tiến", "Xã Ngọc Hòa", "Xã Phú Nam An", "Xã Phú Nghĩa", "Xã Phụng Châu", "Xã Quảng Bị", "Xã Tân Tiến", "Xã Thanh Bình", "Xã Thượng Vực", "Xã Thụy Hương", "Xã Tiên Phương", "Xã Tốt Động", "Xã Trần Phú", "Xã Trung Hòa", "Xã Trường Yên", "Xã Văn Võ"
    ],
    "location": "https://www.google.com/maps/search/?api=1&query=Bệnh+viện+Đa+khoa+Hà+Đông"
  },
  {
    "name": "Bệnh viện Đa khoa Phú Xuyên",
    "address": "Tiểu khu Thao Chính, Thị trấn Phú Xuyên, Huyện Phú Xuyên, Hà Nội",
    "website": null,
    "phone": "02433854335",
    "district": "Phú Xuyên",
    "nearby": [
      "Xã Phú Xuyên",
      "Xã Phượng Dực",
      "Xã Chuyên Mỹ",
      "Xã Đại Xuyên"
    ],
    "location": "https://www.google.com/maps/search/?api=1&query=Bệnh+viện+Đa+khoa+Phú+Xuyên"
  },
  {
    "name": "Phòng khám Đa khoa Y Cao - Thường Tín",
    "address": "Quất Động, Huyện Thường Tín, Hà Nội",
    "website": null,
    "phone": "0912203760",
    "district": "Phú Xuyên (Lân cận huyện Thường Tín)",
    "nearby": [
      "Xã Phú Xuyên",
      "Xã Phượng Dực",
      "Xã Chuyên Mỹ",
      "Xã Đại Xuyên"
    ],
    "location": "https://www.google.com/maps/search/?api=1&query=Phòng+khám+Đa+khoa+Y+Cao+Thường+Tín"
  },
  {
    "name": "Phòng Khám Da Liễu Quốc Oai",
    "address": "80 Tỉnh lộ 80, Thị trấn Quốc Oai, Huyện Quốc Oai, Hà Nội",
    "website": null,
    "phone": null,
    "district": "Quốc Oai",
    "nearby": [
      "Xã Quốc Oai",
      "Xã Kiều Phú",
      "Xã Phú Cát",
      "Xã Hưng Đạo"
    ],
    "location": "https://www.google.com/maps/search/?api=1&query=Phòng+Khám+Da+Liễu+Quốc+Oai"
  },
  {
    "name": "Bệnh Viện Da Liễu Hà Nội - Cơ sở 3",
    "address": "Xã Đông Yên, Huyện Quốc Oai, Hà Nội",
    "website": "http://benhviendalieuhanoi.com/",
    "phone": "0903479619",
    "district": "Quốc Oai",
    "nearby": [
      "Xã Quốc Oai",
      "Xã Kiều Phú",
      "Xã Phú Cát",
      "Xã Hưng Đạo"
    ],
    "location": "https://www.google.com/maps/search/?api=1&query=Bệnh+Viện+Da+Liễu+Hà+Nội+Cơ+sở+3+Đông+Yên+Quốc+Oai"
  },
  {
    "name": "Phòng khám Đa khoa Favina",
    "address": "135 Thanh Ấm, Thị trấn Vân Đình, Huyện Ứng Hòa, Hà Nội",
    "website": "https://favinahospital.com/",
    "phone": "0963396115",
    "district": "Ứng Hòa",
    "nearby": [
      "Xã Vân Đình",
      "Xã Ứng Thiên",
      "Xã Hòa Xá",
      "Xã Ứng Hòa"
    ],
    "location": "https://www.google.com/maps/search/?api=1&query=Phòng+khám+Đa+khoa+Favina+Ứng+Hòa"
  },
  {
    "name": "Bệnh viện Đa khoa Ứng Hòa",
    "address": "Số 30, đường 426, Thị trấn Vân Đình, Huyện Ứng Hòa, Hà Nội",
    "website": null,
    "phone": "02433989666",
    "district": "Ứng Hòa",
    "nearby": [
      "Xã Vân Đình",
      "Xã Ứng Thiên",
      "Xã Hòa Xá",
      "Xã Ứng Hòa"
    ],
    "location": "https://www.google.com/maps/search/?api=1&query=Bệnh+viện+Đa+khoa+Ứng+Hòa"
  },
  {
    "name": "Phòng khám 36 (Truyền nhiễm - Da liễu)",
    "address": "34 ĐT416, Phường Sơn Lộc, Thị xã Sơn Tây, Hà Nội",
    "website": null,
    "phone": "0968639963",
    "district": "Sơn Tây",
    "nearby": [
      "Phường Sơn Tây",
      "Phường Tùng Thiện",
      "Xã Đoài Phương"
    ],
    "location": "https://www.google.com/maps/search/?api=1&query=Phòng+khám+36+Sơn+Lộc+Sơn+Tây"
  },
  {
    "name": "Bệnh viện Quân Y 105",
    "address": "Số 1, đường Lê Lợi, Phường Lê Lợi, Thị xã Sơn Tây, Hà Nội",
    "website": "http://benhvienquany105.vn/",
    "phone": "02433833215",
    "district": "Sơn Tây",
    "nearby": [
      "Phường Sơn Tây",
      "Phường Tùng Thiện",
      "Xã Đoài Phương"
    ],
    "location": "https://www.google.com/maps/search/?api=1&query=Bệnh+viện+Quân+Y+105+Sơn+Tây"
  },
  {
    "name": "Bệnh viện Đa khoa Chương Mỹ",
    "address": "Khu Ninh Kiều, Thị trấn Chúc Sơn, Huyện Chương Mỹ, Hà Nội",
    "website": null,
    "phone": "02433866677",
    "district": "Mỹ Đức (Lân cận huyện Chương Mỹ)",
    "nearby": [
      "Xã Phúc Sơn",
      "Xã Hồng Sơn",
      "Xã Mỹ Đức",
      "Xã Hương Sơn"
    ],
    "location": "https://www.google.com/maps/search/?api=1&query=Bệnh+viện+Đa+khoa+Chương+Mỹ"
  },
  {
    "name": "Phòng khám Đa khoa An Thịnh",
    "address": "Thị trấn Chúc Sơn, Huyện Chương Mỹ, Hà Nội",
    "website": null,
    "phone": "0976856495",
    "district": "Mỹ Đức (Lân cận huyện Chương Mỹ)",
    "nearby": [
      "Xã Phúc Sơn",
      "Xã Hồng Sơn",
      "Xã Mỹ Đức",
      "Xã Hương Sơn"
    ],
    "location": "https://www.google.com/maps/search/?api=1&query=Phòng+khám+Đa+khoa+An+Thịnh+Chúc+Sơn+Chương+Mỹ"
  }
]
